station_id,display_name,lat,lon,platforms
STN_01,Station A,27.9905,76.9955,2
STN_02,Station B,28.09279,76.99205,3
STN_03,Station C,28.19174,76.99844,6
STN_04,Station D,28.29187,76.99465,2
STN_05,Station E,28.39053,76.99398,6
STN_06,Station F,28.49839,76.99898,6
STN_07,Station G,28.00619,77.09013,4
STN_08,Station H,28.10396,77.09681,3
STN_09,Station I,28.19431,77.10527,3
STN_10,Station J,28.29185,77.09193,2
STN_11,Station K,28.40207,77.10614,4
STN_12,Station L,28.50072,77.10946,5
